{\rtf1\ansi\ansicpg1252\cocoartf1504\cocoasubrtf830
{\fonttbl\f0\fswiss\fcharset0 Helvetica;\f1\fnil\fcharset0 Geneva;}
{\colortbl;\red255\green255\blue255;}
{\*\expandedcolortbl;;}
\margl1440\margr1440\vieww13040\viewh10480\viewkind0
\pard\tx720\tx1440\tx2160\tx2880\tx3600\tx4320\tx5040\tx5760\tx6480\tx7200\tx7920\tx8640\pardirnatural\partightenfactor0

\f0\fs24 \cf0 
\f1 \uc0\u11822 
\f0 I
\f1 \uc0\u11822 
\f0 
\f1 \uc0\u11822 
\f0 $GPRMC,184033.00,A,4714.66996,N,12226.24149,W,0.511,,030519,,,A*6B\
11:40:31.373 -> $GPVTG,,T,,M,0.511,N,0.946,K,A*2D\
11:40:31.373 -> $GPGGA,184033.00,4714.66996,N,12226.24149,W,1,04,5.74,22.5,M,-19.2,M,,*5C\
11:40:31.476 -> $GPGSA,A,3,13,28,30,15,,,,,,,,,7.38,5.74,4.65*00\
11:40:31.582 -> $GPGSV,1,1,04,13,52,282,41,15,25,309,36,28,83,311,34,30,61,113,36*7E\
11:40:31.582 -> $GPGLL,4714.66996,N,12226.24149,W,184033.00,A,A*79\
11:40:32.345 -> $GPRMC,184034.00,A,4714.66985,N,12226.24172,W,0.547,,030519,,,A*65\
11:40:32.345 -> $GPVTG,,T,,M,0.547,N,1.012,K,A*27\
11:40:32.345 -> $GPGGA,184034.00,4714.66985,N,12226.24172,W,1,04,5.73,22.4,M,-19.2,M,,*57\
11:40:32.450 -> $GPGSA,A,3,13,28,30,15,,,,,,,,,7.38,5.73,4.65*07\
11:40:32.595 -> $GPGSV,1,1,04,13,52,282,39,15,25,309,37,28,83,311,33,30,61,113,32*73\
11:40:32.595 -> $GPGLL,4714.66985,N,12226.24172,W,184034.00,A,A*74\
11:40:33.350 -> $GPRMC,184035.00,A,4714.66969,N,12226.24194,W,0.333,,030519,,,A*6B\
11:40:33.350 -> $GPVTG,,T,,M,0.333,N,0.616,K,A*21\
11:40:33.350 -> $GPGGA,184035.00,4714.66969,N,12226.24194,W,1,04,5.73,22.3,M,-19.2,M,,*5B\
11:40:33.461 -> $GPGSA,A,3,13,28,30,15,,,,,,,,,7.37,5.73,4.65*08\
11:40:33.566 -> $GPGSV,1,1,04,13,52,282,40,15,25,309,36,28,83,311,33,30,61,113,32*7C\
11:40:33.566 -> $GPGLL,4714.66969,N,12226.24194,W,184035.00,A,A*7F\
11:40:34.365 -> $GPRMC,184036.00,A,4714.66941,N,12226.24206,W,0.144,,030519,,,A*68\
11:40:34.365 -> $GPVTG,,T,,M,0.144,N,0.267,K,A*21\
11:40:34.365 -> $GPGGA,184036.00,4714.66941,N,12226.24206,W,1,04,5.72,22.5,M,
\f1 \uc0\u11822 \u11822 \u11822 
\f0 I
\f1 \uc0\u11822 
\f0 "5\
11:40:34.433 -> $GPGSA,A,3,13,28,30,15,\page A
\f1 \uc0\u11822 
\f0 B
\f1 \uc0\u11822 
\f0 
\f1 \uc0\u11822 
\f0 
\f1 \uc0\u11822 
\f0 #7(
\f1 \uc0\u11822 \u11822 \u11822 
\f0 b
\f1 \uc0\u11822 \u11822 \u11822 
\f0 b
\f1 \uc0\u11822 \u11822 
\f0 b
\f1 \uc0\u11822 \u11822 \u11822 
\f0 b
\f1 \uc0\u11822 \u11822 
\f0 R
\f1 \uc0\u11822 
\f0 *5\
11:40:34.607 -> $GPGLL,4714.66941,N,12226.24206,W,184036.00,A,A*7E\
11:40:35.331 -> $GPRMC,184037.00,A,4714.66902,N,12226.24217,W,0.554,,030519,,,A*6B\
11:40:35.367 -> $GPVTG,,T,,M,0.554,N,1.026,K,A*22\
11:40:35.367 -> $GPGGA,184037.00,4714.66902,N,12226.24217,W,1,04,5.72,23.1,M,-19.2,M,,*5E\
11:40:35.477 -> $GPGSA,A,3,13,28,30,15,,,,,,,,,7.36,5.72,4.64*09\
11:40:35.579 -> $GPGSV,2,1,05,13,52,282,33,15,25,309,37,17,,,37,28,83,312,34*4B\
11:40:35.579 -> $GPGSV,2,2,05,30,61,113,30*48\
11:40:35.616 -> $GPGLL,4714.66902,N,12226.24217,W,184037.00,A,A*78\
11:40:36.338 -> $GPRMC,184038.00,A,4714.66883,N,12226.24248,W,0.603,,030519,,,A*67\
11:40:36.372 -> $GPVTG,,T,,M,0.603,N,1.117,K,A*20\
11:40:36.372 -> $GPGGA,184038.00,4714.66883,N,12226.24248,W,1,04,5.71,23.5,M,-19.2,M,,*54\
11:40:36.446 -> $GPGSA,A,3,13,28,30,15,,,,,,,,,7.36,5.71,4.64*0A\
11:40:36.586 -> $GPGSV,2,1,05,13,52,282,38,15,25,309,35,17,,,38,28,83,312,34*4D\
11:40:36.586 -> $GPGSV,2,2,05,30,61,113,22*4B\
11:40:36.586 -> $GPGLL,4714.66883,N,12226.24248,W,184038.00,A,A*75\
11:40:37.343 -> $GPRMC,184039.00,A,4714.66896,N,12226.24276,W,0.979,,030519,,,A*6D\
11:40:37.381 -> $GPVTG,,T,,M,0.979,N,1.813,K,A*2F\
11:40:37.381 -> $GPGGA,184039.00,4714.66896,N,12226.24276,W,1,04,5.71,24.0,M,-19.2,M,,*5E\
11:40:37.488 -> $GPGSA,A,3,13,28,30,15,,,,,,,,,7.35,5.71,4.63*0E\
11:40:37.560 -> $GPGSV,2,1,06,13,52,282,33,15,25,309,32,17,,,35,19,,,31*73\
11:40:37.593 -> $GPGSV,2,2,06,28,83,312,33,30,61,113,22*79\
11:40:37.593 -> $GPGLL,4714.66896,N,12226.24276,W,184039.00,A,A*7D\
11:40:38.353 -> $GPRMC,184040.00,A,4714.66900,N,12226.24303,W,0.484,,030519,,,A*61\
11:40:38.353 -> $GPVTG,,T,,M,0.484,N,0.896,K,A*2C\
11:40:38.353 -> $GPGGA,184040.00,4714.66900,N,12226.24303,W,1,04,5.70,24.3,M,-19.2,M,,*5F\
11:40:38.488 -> $GPGSA,A,3,13,28,30,15,,,,,,,,,7.35,5.70,4.63*0F\
11:40:38.595 -> $GPGSV,2,1,07,13,52,282,32,15,25,309,31,17,,,35,19,,,30*71\
11:40:38.595 -> $GPGSV,2,2,07,28,83,312,32,30,61,113,22,48,35,194,33*4F\
11:40:38.632 -> $GPGLL,4714.66900,N,12226.24303,W,184040.00,A,A*7E\
11:40:39.362 -> $GPRMC,184041.00,A,4714.66878,N,12226.24319,W,0.678,,030519,,,A*64\
11:40:39.362 -> $GPVTG,,T,,M,0.678,N,1.255,K,A*29\
11:40:39.362 -> $GPGGA,184041.00,4714.66878,N,12226.24319,W,1,04,5.70,24.3,M,-19.2,M,,*5B\
11:40:39.467 -> $GPGSA,A,3,13,28,30,15,,,,,,,,,7.34,5.70,4.63*0E\
11:40:39.577 -> $GPGSV,2,1,07,13,52,282,32,15,25,309,32,17,,,38,19,,,29*77\
11:40:39.577 -> $GPGSV,2,2,07,28,83,312,32,30,61,113,23,48,35,194,35*48\
11:40:39.649 -> $GPGLL,4714.66878,N,12226.24319,W,184041.00,A,A*7A\
11:40:40.344 -> $GPRMC,184042.00,A,4714.66866,N,12226.24319,W,0.228,,030519,,,A*69\
11:40:40.377 -> $GPVTG,,T,,M,0.228,N,0.422,K,A*2F\
11:40:40.377 -> $GPGGA,184042.00,4714.66866,N,12226.24319,W,1,04,5.69,24.3,M,-19.2,M,,*5F\
11:40:40.453 -> $GPGSA,A,3,13,28,30,15,,,,,,,,,7.33,5.69,4.62*00\
11:40:40.590 -> $GPGSV,2,1,08,13,52,282,30,15,25,309,34,17,,,37,19,,,29*73\
11:40:40.590 -> $GPGSV,2,2,08,20,,,20,28,83,312,33,30,61,113,22,48,35,194,36*44\
11:40:40.662 -> $GPGLL,4714.66866,N,12226.24319,W,184042.00,A,A*76\
11:40:41.344 -> $GPRMC,184043.00,A,4714.66860,N,12226.24309,W,0.419,,030519,,,A*6B\
11:40:41.382 -> $GPVTG,,T,,M,0.419,N,0.776,K,A*29\
11:40:41.382 -> $GPGGA,184043.00,4714.66860,N,12226.24309,W,1,04,5.69,24.3,M,-19.2,M,,*59\
11:40:41.489 -> $GPGSA,A,3,13,28,30,15,,,,,,,,,7.33,5.69,4.62*00\
11:40:41.595 -> $GPGSV,2,1,08,13,52,282,29,15,25,309,34,17,,,37,19,,,28*7A\
11:40:41.595 -> $GPGSV,2,2,08,20,,,20,28,83,312,32,30,61,113,20,48,35,194,34*45\
11:40:41.672 -> $GPGLL,4714.66860,N,12226.24309,W,184043.00,A,A*70\
11:40:42.366 -> $GPRMC,184044.00,A,4714.66851,N,12226.24316,W,0.303,,030519,,,A*6C\
11:40:42.366 -> $GPVTG,,T,,M,0.303,N,0.561,K,A*21\
11:40:42.366 -> $GPGGA,184044.00,4714.66851,N,12226.24316,W,1,04,5.68,24.6,M,-19.2,M,,*56\
11:40:42.480 -> $GPGSA,A,3,13,28,30,15,,,,,,,,,7.32,5.68,4.62*00\
11:40:42.591 -> $GPGSV,2,1,08,13,52,282,28,15,25,309,35,17,,,36,19,,,27*74\
11:40:42.591 -> $GPGSV,2,2,08,20,,,18,28,83,312,32,30,61,113,18,48,35,194,33*42\
11:40:42.662 -> $GPGLL,4714.66851,N,12226.24316,W,184044.00,A,A*7B\
11:40:43.356 -> $GPRMC,184045.00,A,4714.66858,N,12226.24315,W,1.104,,030519,,,A*63\
11:40:43.356 -> $GPVTG,,T,,M,1.104,N,2.045,K,A*24\
11:40:43.356 -> $GPGGA,184045.00,4714.66858,N,12226.24315,W,1,04,5.68,24.8,M,-19.2,M,,*53\
11:40:43.500 -> $GPGSA,A,3,13,28,30,15,,,,,,,,,7.32,5.68,4.61*03\
11:40:43.576 -> $GPGSV,2,1,08,13,52,282,26,15,25,309,30,17,34,181,35,19,,,27*43\
11:40:43.615 -> $GPGSV,2,2,08,20,,,15,28,83,312,33,30,61,113,19,48,35,194,34*48\
11:40:43.648 -> $GPGLL,4714.66858,N,12226.24315,W,184045.00,A,A*70\
11:40:44.362 -> $GPRMC,184046.00,A,4714.66885,N,12226.24337,W,0.848,,030519,,,A*60\
11:40:44.362 -> $GPVTG,,T,,M,0.848,N,1.571,K,A*25\
11:40:44.362 -> $GPGGA,184046.00,4714.66885,N,12226.24337,W,1,04,5.67,25.4,M,-19.2,M,,*52\
11:40:44.473 -> $GPGSA,A,3,13,28,30,15,,,,,,,,,7.31,5.67,4.61*0F\
11:40:44.581 -> $GPGSV,2,1,08,13,52,282,28,15,25,309,28,17,34,181,31,19,,,28*4F\
11:40:44.581 -> $GPGSV,2,2,08,20,,,12,28,83,312,32,30,61,113,19,48,35,194,30*4A\
11:40:44.649 -> $GPGLL,4714.66885,N,12226.24337,W,184046.00,A,A*73\
11:40:45.358 -> $GPRMC,184047.00,A,4714.66861,N,12226.24333,W,0.150,,030519,,,A*6F\
11:40:45.358 -> $GPVTG,,T,,M,0.150,N,0.279,K,A*2B\
11:40:45.358 -> $GPGGA,184047.00,4714.66861,N,12226.24333,W,1,04,5.67,25.2,M,-19.2,M,,*5B\
11:40:45.499 -> $GPGSA,A,3,13,28,30,15,,,,,,,,,7.31,5.67,4.61*0F\
11:40:45.566 -> $GPGSV,2,1,08,13,52,282,32,15,25,309,30,17,34,181,35,19,,,30*40\
11:40:45.604 -> $GPGSV,2,2,08,20,,,09,28,83,312,34,30,61,113,21,48,35,194,35*48\
11:40:45.674 -> $GPGLL,4714.66861,N,12226.24333,W,184047.00,A,A*7C\
11:40:46.352 -> $GPRMC,184048.00,A,4714.66881,N,12226.24343,W,0.823,,030519,,,A*64\
11:40:46.352 -> $GPVTG,,T,,M,0.823,N,1.524,K,A*28\
11:40:46.352 -> $GPGGA,184048.00,4714.66881,N,12226.24343,W,1,04,5.67,26.2,M,-19.2,M,,*5E\
11:40:46.496 -> $GPGSA,A,3,13,28,30,15,,,,,,,,,7.30,5.67,4.60*0F\
11:40:46.565 -> $GPGSV,2,1,07,13,52,282,31,15,25,309,33,17,34,181,35,19,,,30*4F\
11:40:46.600 -> $GPGSV,2,2,07,28,83,312,33,30,61,113,21,48,35,194,37*49\
11:40:46.637 -> $GPGLL,4714.66881,N,12226.24343,W,184048.00,A,A*7A\
11:40:47.345 -> $GPRMC,184049.00,A,4714.66852,N,12226.24325,W,0.646,,030519,,,A*66\
11:40:47.378 -> $GPVTG,,T,,M,0.646,N,1.196,K,A*28\
11:40:47.378 -> $GPGGA,184049.00,4714.66852,N,12226.24325,W,1,04,5.66,25.5,M,-19.2,M,,*54\
11:40:47.449 -> $GPGSA,A,3,13,28,30,15,,,,,,,,,7.30,5.66,4.60*0E\
11:40:47.591 -> $GPGSV,2,1,07,13,52,282,32,15,25,309,33,17,34,181,35,19,,,30*4C\
11:40:47.591 -> $GPGSV,2,2,07,28,83,312,33,30,61,113,21,48,35,194,37*49\
11:40:47.659 -> $GPGLL,4714.66852,N,12226.24325,W,184049.00,A,A*75\
11:40:48.325 -> $GPRMC,184050.00,A,4714.66815,N,12226.24354,W,0.816,,030519,,,A*60\
11:40:48.363 -> $GPVTG,,T,,M,0.816,N,1.512,K,A*2B\
11:40:48.363 -> $GPGGA,184050.00,4714.66815,N,12226.24354,W,1,04,5.66,25.2,M,-19.2,M,,*5E\
11:40:48.468 -> $GPGSA,A,3,13,28,30,15,,,,,,,,,7.29,5.66,4.60*06\
11:40:48.574 -> $GPGSV,2,1,07,13,52,282,34,15,25,309,34,17,34,181,37,19,,,32*4D\
11:40:48.574 -> $GPGSV,2,2,07,28,83,312,36,30,61,113,21,48,35,194,34*4F\
11:40:48.646 -> $GPGLL,4714.66815,N,12226.24354,W,184050.00,A,A*78\
11:40:49.357 -> $GPRMC,184051.00,A,4714.66815,N,12226.24373,W,0.437,,030519,,,A*6B\
11:40:49.357 -> $GPVTG,,T,,M,0.437,N,0.808,K,A*23\
11:40:49.357 -> $GPGGA,184051.00,4714.66815,N,12226.24373,W,1,04,5.65,25.6,M,-19.2,M,,*5D\
11:40:49.460 -> $GPGSA,A,3,13,28,30,15,,,,,,,,,7.28,5.65,4.59*0E\
11:40:49.566 -> $GPGSV,2,1,07,13,52,282,33,15,25,309,31,17,34,181,35,19,,,29*47\
11:40:49.566 -> $GPGSV,2,2,07,28,83,312,36,30,61,113,22,48,35,194,34*4C\
11:40:49.666 -> $GPGLL,4714.66815,N,12226.24373,W,184051.00,A,A*7C\
11:40:50.351 -> $GPRMC,184052.00,A,4714.66805,N,12226.24369,W,1.545,,030519,,,A*67\
11:40:50.351 -> $GPVTG,,T,,M,1.545,N,2.861,K,A*2B\
11:40:50.351 -> $GPGGA,184052.00,4714.66805,N,12226.24369,W,1,04,5.65,25.0,M,-19.2,M,,*52\
11:40:50.459 -> $GPGSA,A,3,13,28,30,15,,,,,,,,,7.28,5.65,4.59*0E\
11:40:50.559 -> $GPGSV,2,1,07,13,52,282,32,15,25,309,27,17,34,181,32,19,,,29*46\
11:40:50.593 -> $GPGSV,2,2,07,28,83,312,33,30,61,113,23,48,35,194,29*44\
11:40:50.627 -> $GPGLL,4714.66805,N,12226.24369,W,184052.00,A,A*75\
11:40:51.339 -> $GPRMC,184053.00,A,4714.66792,N,12226.24418,W,0.204,,030519,,,A*65\
11:40:51.377 -> $GPVTG,,T,,M,0.204,N,0.378,K,A*29\
11:40:51.377 -> $GPGGA,184053.00,4714.66792,N,12226.24418,W,1,04,5.64,25.4,M,-19.2,M,,*56\
11:40:51.482 -> $GPGSA,A,3,13,28,30,15,,,,,,,,,7.27,5.64,4.59*00\
11:40:51.587 -> $GPGSV,2,1,07,13,52,282,31,15,25,309,31,17,34,181,31,19,,,28*40\
11:40:51.587 -> $GPGSV,2,2,07,28,83,312,33,30,61,113,22,48,35,194,29*45\
11:40:51.661 -> $GPGLL,4714.66792,N,12226.24418,W,184053.00,A,A*74\
11:40:52.334 -> $GPRMC,184054.00,A,4714.66785,N,12226.24432,W,0.396,,030519,,,A*66\
11:40:52.369 -> $GPVTG,,T,,M,0.396,N,0.733,K,A*28\
11:40:52.369 -> $GPGGA,184054.00,4714.66785,N,12226.24432,W,1,04,5.64,25.3,M,-19.2,M,,*58\
11:40:52.480 -> $GPGSA,A,3,13,28,30,15,,,,,,,,,7.27,5.64,4.59*00\
11:40:52.585 -> $GPGSV,2,1,07,13,52,282,34,15,25,309,31,17,34,181,30,19,,,32*4F\
11:40:52.585 -> $GPGSV,2,2,07,28,83,312,34,30,61,113,24,48,35,194,30*4C\
11:40:52.658 -> $GPGLL,4714.66785,N,12226.24432,W,184054.00,A,A*7D\
11:40:53.336 -> $GPRMC,184055.00,A,4714.66756,N,12226.24443,W,0.406,,030519,,,A*61\
11:40:53.373 -> $GPVTG,,T,,M,0.406,N,0.752,K,A*21\
11:40:53.373 -> $GPGGA,184055.00,4714.66756,N,12226.24443,W,1,04,5.63,25.3,M,-19.2,M,,*56\
11:40:53.474 -> $GPGSA,A,3,13,28,30,15,,,,,,,,,7.26,5.63,4.58*07\
11:40:53.582 -> $GPGSV,2,1,07,13,52,282,31,15,25,309,32,17,34,181,29,19,,,32*41\
11:40:53.582 -> $GPGSV,2,2,07,28,83,312,34,30,61,113,27,48,35,194,32*4D\
11:40:53.650 -> $GPGLL,4714.66756,N,12226.24443,W,184055.00,A,A*74\
11:40:54.363 -> $GPRMC,184056.00,A,4714.66749,N,12226.24451,W,0.196,,030519,,,A*63\
11:40:54.363 -> $GPVTG,,T,,M,0.196,N,0.363,K,A*2B\
11:40:54.363 -> $GPGGA,184056.00,4714.66749,N,12226.24451,W,1,04,5.63,25.4,M,-19.2,M,,*5F\
11:40:54.466 -> $GPGSA,A,3,13,28,30,15,,,,,,,,,7.26,5.63,4.58*07\
11:40:54.577 -> $GPGSV,2,1,07,13,52,282,31,15,25,309,32,17,34,181,28,19,,,32*40\
11:40:54.577 -> $GPGSV,2,2,07,28,83,314,29,30,61,113,27,48,35,194,32*47\
11:40:54.648 -> $GPGLL,4714.66749,N,12226.24451,W,184056.00,A,A*7A\
11:40:55.333 -> $GPRMC,184057.00,A,4714.66774,N,12226.24486,W,0.595,,030519,,,A*61\
11:40:55.369 -> $GPVTG,,T,,M,0.595,N,1.102,K,A*28\
11:40:55.369 -> $GPGGA,184057.00,4714.66774,N,12226.24486,W,1,04,5.62,26.3,M,-19.2,M,,*5F\
11:40:55.474 -> $GPGSA,A,3,13,28,30,15,,,,,,,,,7.25,5.62,4.58*05\
11:40:55.575 -> $GPGSV,2,1,07,13,52,282,31,15,25,309,30,17,34,181,28,19,,,31*41\
11:40:55.575 -> $GPGSV,2,2,07,28,83,314,30,30,61,113,26,48,35,194,31*4D\
11:40:55.644 -> $GPGLL,4714.66774,N,12226.24486,W,184057.00,A,A*7F\
11:40:56.363 -> $GPRMC,184058.00,A,4714.66744,N,12226.24492,W,0.304,,030519,,,A*66\
11:40:56.363 -> $GPVTG,,T,,M,0.304,N,0.563,K,A*24\
11:40:56.363 -> $GPGGA,184058.00,4714.66744,N,12226.24492,W,1,04,5.62,25.7,M,-19.2,M,,*51\
11:40:56.467 -> $GPGSA,A,3,13,28,30,15,,,,,,,,,7.25,5.62,4.57*0A\
11:40:56.570 -> $GPGSV,2,1,07,13,52,282,35,15,25,309,29,17,34,181,32,19,,,32*45\
11:40:56.606 -> $GPGSV,2,2,07,28,83,314,34,30,61,113,26,48,35,194,35*4D\
11:40:56.642 -> $GPGLL,4714.66744,N,12226.24492,W,184058.00,A,A*76\
11:40:57.362 -> $GPRMC,184059.00,A,4714.66676,N,12226.24501,W,0.077,,030519,,,A*6B\
11:40:57.362 -> $GPVTG,,T,,M,0.077,N,0.142,K,A*24\
11:40:57.362 -> $GPGGA,184059.00,4714.66676,N,12226.24501,W,1,04,5.62,25.0,M,-19.2,M,,*5C\
11:40:57.471 -> $GPGSA,A,3,13,28,30,15,,,,,,,,,7.24,5.62,4.57*0B\
11:40:57.575 -> $GPGSV,2,1,07,13,52,282,36,15,25,309,33,17,34,181,27,19,,,33*48\
11:40:57.575 -> $GPGSV,2,2,07,28,83,314,32,30,61,113,27,48,35,194,35*4A\
11:40:57.646 -> $GPGLL,4714.66676,N,12226.24501,W,184059.00,A,A*7C\
11:40:58.325 -> $GPRMC,184100.00,A,4714.66639,N,12226.24498,W,0.008,,030519,,,A*64\
11:40:58.363 -> $GPVTG,,T,,M,0.008,N,0.015,K,A*2F\
11:40:58.363 -> $GPGGA,184100.00,4714.66639,N,12226.24498,W,1,04,5.61,24.5,M,-19.2,M,,*5C\
11:40:58.472 -> $GPGSA,A,3,13,28,30,15,,,,,,,,,7.24,5.61,4.57*08\
11:40:58.582 -> $GPGSV,2,1,07,13,52,282,32,15,25,309,28,17,34,181,25,19,,,30*47\
11:40:58.582 -> $GPGSV,2,2,07,28,83,314,33,30,61,113,25,48,35,194,33*4F\
11:40:58.650 -> $GPGLL,4714.66639,N,12226.24498,W,184100.00,A,A*7B\
11:40:59.344 -> $GPRMC,184101.00,A,4714.66662,N,12226.24542,W,1.234,,030519,,,A*61\
11:40:59.344 -> $GPVTG,,T,,M,1.234,N,2.285,K,A*2A\
11:40:59.344 -> $GPGGA,184101.00,4714.66662,N,12226.24542,W,1,04,5.61,25.8,M,-19.2,M,,*59\
11:40:59.488 -> $GPGSA,A,3,13,28,30,15,,,,,,,,,7.23,5.61,4.56*0E\
11:40:59.594 -> $GPGSV,2,1,07,13,52,282,23,15,25,309,18,17,34,181,30,19,,,24*45\
11:40:59.594 -> $GPGSV,2,2,07,28,83,314,33,30,61,113,22,48,35,194,30*4B\
11:40:59.632 -> $GPGLL,4714.66662,N,12226.24542,W,184101.00,A,A*72\
11:41:00.356 -> $GPRMC,184102.00,A,4714.66632,N,12226.24555,W,0.399,,030519,,,A*66\
11:41:00.356 -> $GPVTG,,T,,M,0.399,N,0.739,K,A*2D\
11:41:00.356 -> $GPGGA,184102.00,4714.66632,N,12226.24555,W,1,04,5.60,25.7,M,-19.2,M,,*57\
11:41:00.467 -> $GPGSA,A,3,13,28,30,15,,,,,,,,,7.22,5.60,4.56*0E\
11:41:00.572 -> $GPGSV,2,1,06,13,52,282,26,15,25,309,16,17,34,181,29,19,,,22*41\
11:41:00.606 -> $GPGSV,2,2,06,28,83,314,32,30,61,113,20*7C\
11:41:00.640 -> $GPGLL,4714.66632,N,12226.24555,W,184102.00,A,A*72\
11:41:01.341 -> $GPRMC,184103.00,A,4714.66601,N,12226.24565,W,1.415,,030519,,,A*66\
11:41:01.341 -> $GPVTG,,T,,M,1.415,N,2.621,K,A*25\
11:41:01.341 -> $GPGGA,184103.00,4714.66601,N,12226.24565,W,1,04,5.60,25.7,M,-19.2,M,,*55\
11:41:01.442 -> $GPGSA,A,3,13,28,30,15,,,,,,,,,7.22,5.60,4.56*0E\
11:41:01.587 -> $GPGSV,2,1,06,13,52,282,31,15,25,309,15,17,34,181,29,19,,,21*47\
11:41:01.587 -> $GPGSV,2,2,06,28,83,314,29,30,61,113,18*7D\
11:41:01.625 -> $GPGLL,4714.66601,N,12226.24565,W,184103.00,A,A*70\
11:41:02.346 -> $GPRMC,184104.00,A,4714.66646,N,12226.24552,W,0.289,,030519,,,A*64\
11:41:02.346 -> $GPVTG,,T,,M,0.289,N,0.536,K,A*20\
11:41:02.346 -> $GPGGA,184104.00,4714.66646,N,12226.24552,W,1,04,5.59,26.5,M,-19.2,M,,*5E\
11:41:02.461 -> $GPGSA,A,3,13,28,30,15,,,,,,,,,7.21,5.59,4.56*07\
11:41:02.568 -> $GPGSV,2,1,06,13,52,282,31,15,25,309,20,17,34,181,28,19,,,21*40\
11:41:02.602 -> $GPGSV,2,2,06,28,83,314,33,30,61,113,29*74\
11:41:02.640 -> $GPGLL,4714.66646,N,12226.24552,W,184104.00,A,A*70\
11:41:03.357 -> $GPRMC,184105.00,A,4714.66584,N,12226.24522,W,0.274,,030519,,,A*6D\
11:41:03.357 -> $GPVTG,,T,,M,0.274,N,0.508,K,A*2F\
11:41:03.357 -> $GPGGA,184105.00,4714.66584,N,12226.24522,W,1,04,5.59,25.5,M,-19.2,M,,*56\
11:41:03.467 -> $GPGSA,A,3,13,28,30,15,,,,,,,,,7.21,5.59,4.55*04\
11:41:03.572 -> $GPGSV,2,1,06,13,52,282,31,15,25,309,24,17,34,181,27,19,,,18*41\
11:41:03.608 -> $GPGSV,2,2,06,28,83,314,33,30,61,113,28*75\
11:41:03.642 -> $GPGLL,4714.66584,N,12226.24522,W,184105.00,A,A*7B\
11:41:04.336 -> $GPRMC,184106.00,A,4714.66543,N,12226.24507,W,0.076,,030519,,,A*62\
11:41:04.369 -> $GPVTG,,T,,M,0.076,N,0.141,K,A*26\
11:41:04.369 -> $GPGGA,184106.00,4714.66543,N,12226.24507,W,1,04,5.58,24.5,M,-19.2,M,,*59\
11:41:04.477 -> $GPGSA,A,3,13,28,30,15,,,,,,,,,7.20,5.58,4.55*04\
11:41:04.587 -> $GPGSV,2,1,06,13,52,282,31,15,25,309,25,17,34,181,26,19,,,20*4A\
11:41:04.587 -> $GPGSV,2,2,06,28,83,314,33,30,61,113,27*7A\
11:41:04.623 -> $GPGLL,4714.66543,N,12226.24507,W,184106.00,A,A*74\
11:41:05.344 -> $GPRMC,184107.00,A,4714.66475,N,12226.24517,W,0.433,,030519,,,A*63\
11:41:05.344 -> $GPVTG,,T,,M,0.433,N,0.801,K,A*2E\
11:41:05.377 -> $GPGGA,184107.00,4714.66475,N,12226.24517,W,1,04,5.58,23.6,M,-19.2,M,,*59\
11:41:05.483 -> $GPGSA,A,3,13,28,30,15,,,,,,,,,7.20,5.58,4.55*04\
11:41:05.593 -> $GPGSV,2,1,06,13,52,282,33,15,25,309,32,17,34,181,28,19,,,34*45\
11:41:05.593 -> $GPGSV,2,2,06,28,83,314,35,30,61,113,10*78\
11:41:05.627 -> $GPGLL,4714.66475,N,12226.24517,W,184107.00,A,A*70\
11:41:06.350 -> $GPRMC,184108.00,A,4714.66428,N,12226.24528,W,0.364,,030519,,,A*6D\
11:41:06.350 -> $GPVTG,,T,,M,0.364,N,0.673,K,A*20\
11:41:06.350 -> $GPGGA,184108.00,4714.66428,N,12226.24528,W,1,03,4.70,23.1,M,-19.2,M,,*59\
11:41:06.461 -> $GPGSA,A,2,13,28,15,,,,,,,,,,4.81,4.70,1.00*00\
11:41:06.568 -> $GPGSV,2,1,06,13,52,282,33,15,25,309,31,17,34,181,28,19,,,33*41\
11:41:06.568 -> $GPGSV,2,2,06,28,83,314,35,30,61,113,08*71\
11:41:06.604 -> $GPGLL,4714.66428,N,12226.24528,W,184108.00,A,A*7B\
11:41:07.323 -> $GPRMC,184107.00,A,4714.66384,N,12226.24513,W,1.497,,030519,,,A*61\
11:41:07.357 -> $GPVTG,,T,,M,1.497,N,2.772,K,A*28\
11:41:07.357 -> $GPGGA,184107.00,4714.66384,N,12226.24513,W,1,03,4.70,21.9,M,-19.2,M,,*55\
11:41:07.466 -> $GPGSA,A,2,13,28,15,,,,,,,,,,4.80,4.70,1.00*01\
11:41:07.576 -> $GPGSV,2,1,06,13,52,282,31,15,25,309,29,17,34,181,26,19,,,33*44\
11:41:07.576 -> $GPGSV,2,2,06,28,83,314,35,30,61,113,09*70\
11:41:07.576 -> $GPGLL,4714.66384,N,12226.24513,W,184107.00,A,A*7D\
11:41:08.321 -> $GPRMC,184108.00,A,4714.66363,N,12226.24541,W,0.833,,030519,,,A*63\
11:41:08.356 -> $GPVTG,,T,,M,0.833,N,1.542,K,A*29\
11:41:08.356 -> $GPGGA,184108.00,4714.66363,N,12226.24541,W,1,03,4.70,21.7,M,-19.2,M,,*5A\
11:41:08.466 -> $GPGSA,A,2,13,28,15,,,,,,,,,,4.80,4.70,1.00*01\
11:41:08.576 -> $GPGSV,2,1,06,13,52,282,31,15,25,309,29,17,34,181,25,19,,,31*45\
11:41:08.576 -> $GPGSV,2,2,06,28,83,314,32,30,61,113,09*77\
11:41:08.576 -> $GPGLL,4714.66363,N,12226.24541,W,184108.00,A,A*7C\
11:41:09.326 -> $GPRMC,184109.00,A,4714.66347,N,12226.24581,W,0.714,,030519,,,A*62\
11:41:09.364 -> $GPVTG,,T,,M,0.714,N,1.323,K,A*22\
11:41:09.364 -> $GPGGA,184109.00,4714.66347,N,12226.24581,W,1,03,4.70,21.7,M,-19.2,M,,*51\
11:41:09.467 -> $GPGSA,A,2,13,28,15,,,,,,,,,,4.80,4.70,1.00*01\
11:41:09.569 -> $GPGSV,2,1,06,13,52,282,33,15,25,309,30,17,34,181,26,19,,,32*4F\
11:41:09.603 -> $GPGSV,2,2,06,28,83,314,35,30,61,113,09*70\
11:41:09.603 -> $GPGLL,4714.66347,N,12226.24581,W,184109.00,A,A*77\
11:41:10.325 -> $GPRMC,184110.00,A,4714.66324,N,12226.24603,W,1.025,,030519,,,A*62\
11:41:10.364 -> $GPVTG,,T,,M,1.025,N,1.899,K,A*2C\
11:41:10.364 -> $GPGGA,184110.00,4714.66324,N,12226.24603,W,1,03,4.69,21.6,M,-19.2,M,,*5C\
11:41:10.473 -> $GPGSA,A,2,13,28,15,,,,,,,,,,4.80,4.69,1.00*09\
11:41:10.577 -> $GPGSV,2,1,06,13,52,282,34,15,25,309,30,17,34,181,26,19,,,33*49\
11:41:10.577 -> $GPGSV,2,2,06,28,83,314,35,30,61,113,09*70\
11:41:10.577 -> $GPGLL,4714.66324,N,12226.24603,W,184110.00,A,A*73\
11:41:11.349 -> $GPRMC,184111.00,A,4714.66303,N,12226.24589,W,0.806,,030519,,,A*6F\
11:41:11.349 -> $GPVTG,,T,,M,0.806,N,1.493,K,A*22\
11:41:11.349 -> $GPGGA,184111.00,4714.66303,N,12226.24589,W,1,04,5.55,21.3,M,-19.2,M,,*55\
11:41:11.452 -> $GPGSA,A,3,13,28,30,15,,,,,,,,,7.17,5.55,4.53*0B\
11:41:11.566 -> $GPGSV,2,1,06,13,52,282,31,15,25,309,30,17,34,181,27,19,,,30*4E\
11:41:11.566 -> $GPGSV,2,2,06,28,83,314,32,30,61,113,10*7F\
11:41:11.634 -> $GPGLL,4714.66303,N,12226.24589,W,184111.00,A,A*76\
11:41:12.353 -> $GPRMC,184112.00,A,4714.66309,N,12226.24583,W,0.111,,030519,,,A*63\
11:41:12.353 -> $GPVTG,,T,,M,0.111,N,0.205,K,A*25\
11:41:12.353 -> $GPGGA,184112.00,4714.66309,N,12226.24583,W,1,04,5.55,21.2,M,-19.2,M,,*57\
11:41:12.458 -> $GPGSA,A,3,13,28,30,15,,,,,,,,,7.16,5.55,4.53*0A\
11:41:12.564 -> $GPGSV,2,1,06,13,52,282,31,15,25,309,29,17,35,181,27,19,,,32*45\
11:41:12.564 -> $GPGSV,2,2,06,28,83,314,33,30,61,113,12*7C\
11:41:12.635 -> $GPGLL,4714.66309,N,12226.24583,W,184112.00,A,A*75\
11:41:13.344 -> $GPRMC,184113.00,A,4714.66306,N,12226.24588,W,0.053,,030519,,,A*61\
11:41:13.344 -> $GPVTG,,T,,M,0.053,N,0.099,K,A*25\
11:41:13.379 -> $GPGGA,184113.00,4714.66306,N,12226.24588,W,1,04,5.55,21.3,M,-19.2,M,,*53\
11:41:13.450 -> $GPGSA,A,3,13,28,30,15,,,,,,,,,7.16,5.55,4.52*0B\
11:41:13.590 -> $GPGSV,2,1,07,13,52,282,31,15,25,309,28,17,35,181,27,18,17,071,*75\
11:41:13.590 -> $GPGSV,2,2,07,19,,,32,28,83,314,36,30,61,113,11*72\
11:41:13.659 -> $GPGLL,4714.66306,N,12226.24588,W,184113.00,A,A*70\
11:41:14.377 -> $GPRMC,184114.00,A,4714.66279,N,12226.24611,W,0.312,,030519,,,A*6A\
11:41:14.377 -> $GPVTG,,T,,M,0.312,N,0.579,K,A*28\
11:41:14.377 -> $GPGGA,184114.00,4714.66279,N,12226.24611,W,1,04,5.54,21.4,M,-19.2,M,,*58\
11:41:14.488 -> $GPGSA,A,3,13,28,30,15,,,,,,,,,7.15,5.54,4.52*09\
11:41:14.599 -> $GPGSV,2,1,07,13,52,282,35,15,25,309,27,17,35,181,28,18,17,071,*71\
11:41:14.599 -> $GPGSV,2,2,07,19,,,33,28,83,315,33,30,61,113,08*7F\
11:41:14.669 -> $GPGLL,4714.66279,N,12226.24611,W,184114.00,A,A*7D\
11:41:15.338 -> $GPRMC,184115.00,A,4714.66279,N,12226.24622,W,0.554,,030519,,,A*6F\
11:41:15.372 -> $GPVTG,,T,,M,0.554,N,1.027,K,A*23\
11:41:15.372 -> $GPGGA,184115.00,4714.66279,N,12226.24622,W,1,04,5.54,21.8,M,-19.2,M,,*55\
11:41:15.481 -> $GPGSA,A,3,13,28,30,15,,,,,,,,,7.15,5.54,4.52*09\
11:41:15.588 -> $GPGSV,2,1,07,13,52,282,30,15,25,309,26,17,35,181,29,18,17,071,*74\
11:41:15.588 -> $GPGSV,2,2,07,19,,,27,28,83,315,32,30,61,113,07*74\
11:41:15.624 -> $GPGLL,4714.66279,N,12226.24622,W,184115.00,A,A*7C\
11:41:16.327 -> $GPRMC,184116.00,A,4714.66279,N,12226.24645,W,0.898,,030519,,,A*60\
11:41:16.361 -> $GPVTG,,T,,M,0.898,N,1.663,K,A*28\
11:41:16.361 -> $GPGGA,184116.00,4714.66279,N,12226.24645,W,1,04,5.53,22.1,M,-19.2,M,,*5A\
11:41:16.466 -> $GPGSA,A,3,13,28,30,15,,,,,,,,,7.14,5.53,4.51*0C\
11:41:16.568 -> $GPGSV,2,1,07,13,52,282,30,15,25,309,27,17,35,181,31,18,17,071,*7C\
11:41:16.600 -> $GPGSV,2,2,07,19,,,27,28,83,315,31,30,61,113,07*77\
11:41:16.636 -> $GPGLL,4714.66279,N,12226.24645,W,184116.00,A,A*7E\
11:41:17.334 -> $GPRMC,184117.00,A,4714.66287,N,12226.24642,W,0.377,,030519,,,A*6D\
11:41:17.368 -> $GPVTG,,T,,M,0.377,N,0.698,K,A*27\
11:41:17.368 -> $GPGGA,184117.00,4714.66287,N,12226.24642,W,1,04,5.53,22.7,M,-19.2,M,,*5B\
11:41:17.468 -> $GPGSA,A,3,13,28,30,15,,,,,,,,,7.13,5.53,4.51*0B\
11:41:17.570 -> $GPGSV,2,1,07,13,52,282,32,15,25,309,26,17,35,181,26,18,17,071,*79\
11:41:17.605 -> $GPGSV,2,2,07,19,,,28,28,83,315,32,30,61,113,07*7B\
11:41:17.639 -> $GPGLL,4714.66287,N,12226.24642,W,184117.00,A,A*79\
11:41:18.335 -> $GPRMC,184118.00,A,4714.66332,N,12226.24630,W,0.911,,030519,,,A*62\
11:41:18.369 -> $GPVTG,,T,,M,0.911,N,1.688,K,A*2D\
11:41:18.369 -> $GPGGA,184118.00,4714.66332,N,12226.24630,W,1,04,5.52,23.3,M,-19.2,M,,*5A\
11:41:18.470 -> $GPGSA,A,3,13,28,30,15,,,,,,,,,7.13,5.52,4.51*0A\
11:41:18.572 -> $GPGSV,2,1,07,13,52,282,35,15,25,309,30,17,35,181,35,18,17,071,*7B\
11:41:18.572 -> $GPGSV,2,2,07,19,,,31,28,83,315,34,30,61,113,07*75\
11:41:18.641 -> $GPGLL,4714.66332,N,12226.24630,W,184118.00,A,A*7C\
11:41:19.338 -> $GPRMC,184119.00,A,4714.66337,N,12226.24626,W,0.583,,030519,,,A*66\
11:41:19.372 -> $GPVTG,,T,,M,0.583,N,1.081,K,A*25\
11:41:19.372 -> $GPGGA,184119.00,4714.66337,N,12226.24626,W,1,04,5.52,24.0,M,-19.2,M,,*5D\
11:41:19.476 -> $GPGSA,A,3,13,28,30,15,,,,,,,,,7.12,5.52,4.51*0B\
11:41:19.576 -> $GPGSV,2,1,08,13,52,282,35,15,25,309,32,17,35,181,37,18,17,071,*74\
11:41:19.576 -> $GPGSV,2,2,08,19,,,33,28,83,315,34,30,61,113,08,48,35,194,35*47\
11:41:19.646 -> $GPGLL,4714.66337,N,12226.24626,W,184119.00,A,A*7F\
11:41:20.347 -> $GPRMC,184120.00,A,4714.66310,N,12226.24658,W,1.119,,030519,,,A*66\
11:41:20.347 -> $GPVTG,,T,,M,1.119,N,2.072,K,A*2C\
11:41:20.347 -> $GPGGA,184120.00,4714.66310,N,12226.24658,W,1,04,5.51,24.2,M,-19.2,M,,*5A\
11:41:20.451 -> $GPGSA,A,3,13,28,30,15,,,,,,,,,7.12,5.51,4.50*09\
11:41:20.554 -> $GPGSV,2,1,08,13,52,282,33,15,25,309,30,17,35,181,34,18,17,071,*73\
11:41:20.588 -> $GPGSV,2,2,08,19,,,32,28,83,315,33,30,61,113,16,48,35,194,30*4B\
11:41:20.659 -> $GPGLL,4714.66310,N,12226.24658,W,184120.00,A,A*79\
11:41:21.341 -> $GPRMC,184121.00,A,4714.66315,N,12226.24670,W,0.322,,030519,,,A*63\
11:41:21.341 -> $GPVTG,,T,,M,0.322,N,0.597,K,A*2B\
11:41:21.374 -> $GPGGA,184121.00,4714.66315,N,12226.24670,W,1,04,5.51,24.4,M,-19.2,M,,*52\
11:41:21.482 -> $GPGSA,A,3,13,28,30,15,,,,,,,,,7.11,5.51,4.50*0A\
11:41:21.589 -> $GPGSV,2,1,08,13,52,282,32,15,25,309,30,17,35,181,30,18,17,071,*76\
11:41:21.589 -> $GPGSV,2,2,08,19,,,32,28,83,315,32,30,61,113,16,48,35,194,30*4A\
11:41:21.661 -> $GPGLL,4714.66315,N,12226.24670,W,184121.00,A,A*77\
11:41:22.348 -> $GPRMC,184122.00,A,4714.66332,N,12226.24669,W,0.498,,030519,,,A*6B\
11:41:22.348 -> $GPVTG,,T,,M,0.498,N,0.922,K,A*2F\
11:41:22.348 -> $GPGGA,184122.00,4714.66332,N,12226.24669,W,1,04,5.51,24.5,M,-19.2,M,,*5D\
11:41:22.456 -> $GPGSA,A,3,13,28,30,15,,,,,,,,,7.11,5.51,4.50*0A\
11:41:22.558 -> $GPGSV,2,1,08,13,52,282,33,15,25,309,31,17,35,181,33,18,17,071,*75\
11:41:22.592 -> $GPGSV,2,2,08,19,,,32,28,83,315,34,30,61,113,17,48,35,194,34*49\
11:41:22.660 -> $GPGLL,4714.66332,N,12226.24669,W,184122.00,A,A*79\
11:41:23.350 -> $GPRMC,184123.00,A,4714.66336,N,12226.24659,W,0.361,,030519,,,A*6C\
11:41:23.350 -> $GPVTG,,T,,M,0.361,N,0.669,K,A*2E\
11:41:23.350 -> $GPGGA,184123.00,4714.66336,N,12226.24659,W,1,04,5.50,24.2,M,-19.2,M,,*5D\
11:41:23.484 -> $GPGSA,A,3,13,28,30,15,,,,,,,,,7.10,5.50,4.49*02\
11:41:23.590 -> $GPGSV,2,1,08,13,52,282,33,15,25,309,31,17,35,181,36,18,17,071,*70\
11:41:23.590 -> $GPGSV,2,2,08,19,,,32,28,83,315,34,30,61,113,17,48,35,194,35*48\
11:41:23.659 -> $GPGLL,4714.66336,N,12226.24659,W,184123.00,A,A*7F\
11:41:24.344 -> $GPRMC,184124.00,A,4714.66340,N,12226.24649,W,0.577,,030519,,,A*6A\
11:41:24.344 -> $GPVTG,,T,,M,0.577,N,1.069,K,A*28\
11:41:24.344 -> $GPGGA,184124.00,4714.66340,N,12226.24649,W,1,04,5.50,24.1,M,-19.2,M,,*59\
11:41:24.490 -> $GPGSA,A,3,13,28,30,15,,,,,,,,,7.10,5.50,4.49*02\
11:41:24.557 -> $GPGSV,2,1,08,13,52,282,32,15,25,309,31,17,35,181,36,18,17,071,*71\
11:41:24.591 -> $GPGSV,2,2,08,19,,,31,28,83,315,31,30,61,113,12,48,35,194,34*4A\
11:41:24.661 -> $GPGLL,4714.66340,N,12226.24649,W,184124.00,A,A*78\
11:41:25.360 -> $GPRMC,184125.00,A,4714.66349,N,12226.24634,W,0.845,,030519,,,A*64\
11:41:25.360 -> $GPVTG,,T,,M,0.845,N,1.565,K,A*2D\
11:41:25.360 -> $GPGGA,184125.00,4714.66349,N,12226.24634,W,1,04,5.49,23.9,M,-19.2,M,,*5C\
11:41:25.463 -> $GPGSA,A,3,13,28,30,15,,,,,,,,,7.09,5.49,4.49*02\
11:41:25.568 -> $GPGSV,2,1,08,13,52,282,32,15,25,309,30,17,35,181,36,18,17,071,*70\
11:41:25.568 -> $GPGSV,2,2,08,19,,,30,28,83,315,33,30,61,113,18,48,35,194,34*43\
11:41:25.642 -> $GPGLL,4714.66349,N,12226.24634,W,184125.00,A,A*7A\
11:41:26.353 -> $GPRMC,184126.00,A,4714.66372,N,12226.24617,W,0.756,,030519,,,A*63\
11:41:26.353 -> $GPVTG,,T,,M,0.756,N,1.400,K,A*22\
11:41:26.353 -> $GPGGA,184126.00,4714.66372,N,12226.24617,W,1,04,5.49,23.8,M,-19.2,M,,*57\
11:41:26.493 -> $GPGSA,A,3,13,28,30,15,,,,,,,,,7.09,5.49,4.49*02\
11:41:26.567 -> $GPGSV,2,1,08,13,52,282,32,15,25,309,30,17,35,181,38,18,17,071,*7E\
11:41:26.605 -> $GPGSV,2,2,08,19,,,29,28,83,315,33,30,61,113,23,48,35,194,34*43\
11:41:26.638 -> $GPGLL,4714.66372,N,12226.24617,W,184126.00,A,A*70\
11:41:27.353 -> $GPRMC,184127.00,A,4714.66360,N,12226.24611,W,0.320,,030519,,,A*62\
11:41:27.353 -> $GPVTG,,T,,M,0.320,N,0.592,K,A*2C\
11:41:27.353 -> $GPGGA,184127.00,4714.66360,N,12226.24611,W,1,04,5.48,23.4,M,-19.2,M,,*5E\
11:41:27.463 -> $GPGSA,A,3,13,28,30,15,,,,,,,,,7.08,5.48,4.48*03\
11:41:27.571 -> $GPGSV,2,1,08,13,52,282,32,15,25,309,30,17,35,181,38,18,17,071,*7E\
11:41:27.605 -> $GPGSV,2,2,08,19,,,29,28,83,315,33,30,61,113,26,48,35,194,35*47\
11:41:27.640 -> $GPGLL,4714.66360,N,12226.24611,W,184127.00,A,A*74\
\
\
\
}